{"type":"FeatureCollection","features":[{"type":"Feature","properties":{"source":"ACLED","tag":"CONFLICT at Mbandaka — Day 0","location":"Mbandaka","day":0,"score":0.2519161855688921,"color":"#EF4444","size":6},"geometry":{"type":"Point","coordinates":[18.2558,0.0478]}},{"type":"Feature","properties":{"source":"IOM-DTM","tag":"DISPLACEMENT at Border Zone [CD/CG] — Day 0","location":"Border Zone [CD/CG]","day":0,"score":0.4693978278761749,"color":"#3B82F6","size":8},"geometry":{"type":"Point","coordinates":[18.215100833216482,0.35417699546108505]}},{"type":"Feature","properties":{"source":"IOM-DTM","tag":"DISPLACEMENT at Mbandaka — Day 1","location":"Mbandaka","day":1,"score":0.2529079740770368,"color":"#3B82F6","size":6},"geometry":{"type":"Point","coordinates":[18.2558,0.0478]}},{"type":"Feature","properties":{"source":"DHIS2","tag":"HEALTH at Border Zone [CD/CG] — Day 1","location":"Border Zone [CD/CG]","day":1,"score":0.21127977263008973,"color":"#22C55E","size":6},"geometry":{"type":"Point","coordinates":[18.215100833216482,0.35417699546108505]}},{"type":"Feature","properties":{"source":"ACLED","tag":"CONFLICT at Phantom POE [CD/CG] — Day 1","location":"Phantom POE [CD/CG]","day":1,"score":0.3563650963308316,"color":"#EF4444","size":7},"geometry":{"type":"Point","coordinates":[18.18689725401771,0.6776440014438256]}},{"type":"Feature","properties":{"source":"DHIS2","tag":"HEALTH at Border Zone [CD/CG] — Day 2","location":"Border Zone [CD/CG]","day":2,"score":0.4686563093010032,"color":"#22C55E","size":8},"geometry":{"type":"Point","coordinates":[18.215100833216482,0.35417699546108505]}},{"type":"Feature","properties":{"source":"ACLED","tag":"CONFLICT at Phantom POE [CD/CG] — Day 2","location":"Phantom POE [CD/CG]","day":2,"score":0.45816789583709927,"color":"#EF4444","size":8},"geometry":{"type":"Point","coordinates":[18.18689725401771,0.6776440014438256]}},{"type":"Feature","properties":{"source":"ACLED","tag":"CONFLICT at Phantom POE [CD/CG] — Day 3","location":"Phantom POE [CD/CG]","day":3,"score":0.43769862510187085,"color":"#EF4444","size":8},"geometry":{"type":"Point","coordinates":[18.18689725401771,0.6776440014438256]}},{"type":"Feature","properties":{"source":"IOM-DTM","tag":"DISPLACEMENT at Waypoint C-CD-001-W3 — Day 3","location":"Waypoint C-CD-001-W3","day":3,"score":0.42026653299957684,"color":"#3B82F6","size":7},"geometry":{"type":"Point","coordinates":[18.132396513952344,0.9979855202808448]}},{"type":"Feature","properties":{"source":"IOM-DTM","tag":"DISPLACEMENT at Waypoint C-CD-001-W3 — Day 4","location":"Waypoint C-CD-001-W3","day":4,"score":0.46654707681317464,"color":"#3B82F6","size":8},"geometry":{"type":"Point","coordinates":[18.132396513952344,0.9979855202808448]}},{"type":"Feature","properties":{"source":"DHIS2","tag":"HEALTH at Waypoint C-CD-001-W4 — Day 5","location":"Waypoint C-CD-001-W4","day":5,"score":0.3580259996611368,"color":"#22C55E","size":7},"geometry":{"type":"Point","coordinates":[18.104446422064616,1.2986504590305852]}},{"type":"Feature","properties":{"source":"ACLED","tag":"CONFLICT at Impfondo — Day 5","location":"Impfondo","day":5,"score":0.23883585276053793,"color":"#EF4444","size":6},"geometry":{"type":"Point","coordinates":[18.0594,1.618]}},{"type":"Feature","properties":{"source":"ACLED","tag":"CONFLICT at Impfondo — Day 6","location":"Impfondo","day":6,"score":0.3964751443157397,"color":"#EF4444","size":7},"geometry":{"type":"Point","coordinates":[18.0594,1.618]}},{"type":"Feature","properties":{"source":"IOM-DTM","tag":"DISPLACEMENT at Impfondo — Day 6","location":"Impfondo","day":6,"score":0.3656390737804345,"color":"#3B82F6","size":7},"geometry":{"type":"Point","coordinates":[18.0594,1.618]}},{"type":"Feature","properties":{"source":"ACLED","tag":"CONFLICT at Gbadolite — Day 0","location":"Gbadolite","day":0,"score":0.2648237218051539,"color":"#EF4444","size":6},"geometry":{"type":"Point","coordinates":[21.0047,4.2744]}},{"type":"Feature","properties":{"source":"IOM-DTM","tag":"DISPLACEMENT at Border Zone [CD/CF] — Day 1","location":"Border Zone [CD/CF]","day":1,"score":0.3042201923326773,"color":"#3B82F6","size":6},"geometry":{"type":"Point","coordinates":[20.6945321929975,4.29901229580155]}},{"type":"Feature","properties":{"source":"DHIS2","tag":"HEALTH at Waypoint C-CD-002-W3 — Day 2","location":"Waypoint C-CD-002-W3","day":2,"score":0.15654423757778627,"color":"#22C55E","size":5},"geometry":{"type":"Point","coordinates":[20.090932733318006,4.314118555394111]}},{"type":"Feature","properties":{"source":"ACLED","tag":"CONFLICT at Phantom POE [CD/CF] — Day 2","location":"Phantom POE [CD/CF]","day":2,"score":0.26790552254320343,"color":"#EF4444","size":6},"geometry":{"type":"Point","coordinates":[19.77369670730586,4.333597145846125]}},{"type":"Feature","properties":{"source":"IOM-DTM","tag":"DISPLACEMENT at Waypoint C-CD-002-W5 — Day 2","location":"Waypoint C-CD-002-W5","day":2,"score":0.42652242599007273,"color":"#3B82F6","size":7},"geometry":{"type":"Point","coordinates":[19.47943782154428,4.353335764229141]}},{"type":"Feature","properties":{"source":"ACLED","tag":"CONFLICT at Waypoint C-CD-002-W5 — Day 3","location":"Waypoint C-CD-002-W5","day":3,"score":0.46767924487564283,"color":"#EF4444","size":8},"geometry":{"type":"Point","coordinates":[19.47943782154428,4.353335764229141]}},{"type":"Feature","properties":{"source":"IOM-DTM","tag":"DISPLACEMENT at Waypoint C-CD-002-W7 — Day 4","location":"Waypoint C-CD-002-W7","day":4,"score":0.48847703029732914,"color":"#3B82F6","size":8},"geometry":{"type":"Point","coordinates":[18.855140247982238,4.377574165495628]}},{"type":"Feature","properties":{"source":"ACLED","tag":"CONFLICT at Birao — Day 0","location":"Birao","day":0,"score":0.3059127564212026,"color":"#EF4444","size":6},"geometry":{"type":"Point","coordinates":[22.7833,10.2833]}},{"type":"Feature","properties":{"source":"IOM-DTM","tag":"DISPLACEMENT at Border Zone [CF/SD] — Day 0","location":"Border Zone [CF/SD]","day":0,"score":0.28267470952511187,"color":"#3B82F6","size":6},"geometry":{"type":"Point","coordinates":[23.051286272166227,10.508418354008576]}},{"type":"Feature","properties":{"source":"DHIS2","tag":"HEALTH at Waypoint C-CF-001-W2 — Day 0","location":"Waypoint C-CF-001-W2","day":0,"score":0.4616665857561718,"color":"#22C55E","size":8},"geometry":{"type":"Point","coordinates":[23.313050272417367,10.728415300557822]}},{"type":"Feature","properties":{"source":"IOM-DTM","tag":"DISPLACEMENT at Border Zone [CF/SD] — Day 1","location":"Border Zone [CF/SD]","day":1,"score":0.24779550680668364,"color":"#3B82F6","size":6},"geometry":{"type":"Point","coordinates":[23.051286272166227,10.508418354008576]}},{"type":"Feature","properties":{"source":"DHIS2","tag":"HEALTH at Waypoint C-CF-001-W2 — Day 1","location":"Waypoint C-CF-001-W2","day":1,"score":0.24766711319086088,"color":"#22C55E","size":6},"geometry":{"type":"Point","coordinates":[23.313050272417367,10.728415300557822]}},{"type":"Feature","properties":{"source":"ACLED","tag":"CONFLICT at Waypoint C-CF-001-W3 — Day 1","location":"Waypoint C-CF-001-W3","day":1,"score":0.32942269203589014,"color":"#EF4444","size":7},"geometry":{"type":"Point","coordinates":[23.56671700122088,10.940212172379358]}},{"type":"Feature","properties":{"source":"DHIS2","tag":"HEALTH at Waypoint C-CF-001-W2 — Day 2","location":"Waypoint C-CF-001-W2","day":2,"score":0.2043701029029967,"color":"#22C55E","size":6},"geometry":{"type":"Point","coordinates":[23.313050272417367,10.728415300557822]}},{"type":"Feature","properties":{"source":"ACLED","tag":"CONFLICT at Waypoint C-CF-001-W3 — Day 2","location":"Waypoint C-CF-001-W3","day":2,"score":0.24282344612169388,"color":"#EF4444","size":6},"geometry":{"type":"Point","coordinates":[23.56671700122088,10.940212172379358]}},{"type":"Feature","properties":{"source":"ACLED","tag":"CONFLICT at Waypoint C-CF-001-W3 — Day 3","location":"Waypoint C-CF-001-W3","day":3,"score":0.13236092135784033,"color":"#EF4444","size":5},"geometry":{"type":"Point","coordinates":[23.56671700122088,10.940212172379358]}},{"type":"Feature","properties":{"source":"IOM-DTM","tag":"DISPLACEMENT at Phantom POE [CF/SD] — Day 3","location":"Phantom POE [CF/SD]","day":3,"score":0.37537371856700186,"color":"#3B82F6","size":7},"geometry":{"type":"Point","coordinates":[23.838991266264365,11.160903704892155]}},{"type":"Feature","properties":{"source":"DHIS2","tag":"HEALTH at Waypoint C-CF-001-W5 — Day 3","location":"Waypoint C-CF-001-W5","day":3,"score":0.39835510189634016,"color":"#22C55E","size":7},"geometry":{"type":"Point","coordinates":[24.091586626224434,11.37986037465554]}},{"type":"Feature","properties":{"source":"IOM-DTM","tag":"DISPLACEMENT at Waypoint C-CF-001-W5 — Day 4","location":"Waypoint C-CF-001-W5","day":4,"score":0.12366910978164013,"color":"#3B82F6","size":5},"geometry":{"type":"Point","coordinates":[24.091586626224434,11.37986037465554]}},{"type":"Feature","properties":{"source":"DHIS2","tag":"HEALTH at Waypoint C-CF-001-W6 — Day 4","location":"Waypoint C-CF-001-W6","day":4,"score":0.29945933599207497,"color":"#22C55E","size":6},"geometry":{"type":"Point","coordinates":[24.352411716439253,11.610580827031846]}},{"type":"Feature","properties":{"source":"ACLED","tag":"CONFLICT at Waypoint C-CF-001-W7 — Day 4","location":"Waypoint C-CF-001-W7","day":4,"score":0.35125483554150483,"color":"#EF4444","size":7},"geometry":{"type":"Point","coordinates":[24.61552971868828,11.834323850136018]}},{"type":"Feature","properties":{"source":"DHIS2","tag":"HEALTH at Waypoint C-CF-001-W6 — Day 5","location":"Waypoint C-CF-001-W6","day":5,"score":0.2801908601270515,"color":"#22C55E","size":6},"geometry":{"type":"Point","coordinates":[24.352411716439253,11.610580827031846]}},{"type":"Feature","properties":{"source":"ACLED","tag":"CONFLICT at Waypoint C-CF-001-W7 — Day 5","location":"Waypoint C-CF-001-W7","day":5,"score":0.26028128795642735,"color":"#EF4444","size":6},"geometry":{"type":"Point","coordinates":[24.61552971868828,11.834323850136018]}},{"type":"Feature","properties":{"source":"IOM-DTM","tag":"DISPLACEMENT at Nyala — Day 5","location":"Nyala","day":5,"score":0.19391835823006082,"color":"#3B82F6","size":6},"geometry":{"type":"Point","coordinates":[24.8833,12.05]}},{"type":"Feature","properties":{"source":"ACLED","tag":"CONFLICT at Waypoint C-CF-001-W7 — Day 6","location":"Waypoint C-CF-001-W7","day":6,"score":0.27885830213650464,"color":"#EF4444","size":6},"geometry":{"type":"Point","coordinates":[24.61552971868828,11.834323850136018]}},{"type":"Feature","properties":{"source":"IOM-DTM","tag":"DISPLACEMENT at Nyala — Day 6","location":"Nyala","day":6,"score":0.11846338308603897,"color":"#3B82F6","size":5},"geometry":{"type":"Point","coordinates":[24.8833,12.05]}},{"type":"Feature","properties":{"source":"ACLED","tag":"CONFLICT at Gambela — Day 0","location":"Gambela","day":0,"score":0.2425378756027767,"color":"#EF4444","size":6},"geometry":{"type":"Point","coordinates":[34.5833,8.25]}},{"type":"Feature","properties":{"source":"IOM-DTM","tag":"DISPLACEMENT at Border Zone [ET/SS] — Day 1","location":"Border Zone [ET/SS]","day":1,"score":0.1396468693672695,"color":"#3B82F6","size":5},"geometry":{"type":"Point","coordinates":[34.223934141694066,8.408610010546957]}},{"type":"Feature","properties":{"source":"DHIS2","tag":"HEALTH at Waypoint C-ET-001-W2 — Day 1","location":"Waypoint C-ET-001-W2","day":1,"score":0.3049779053198586,"color":"#22C55E","size":6},"geometry":{"type":"Point","coordinates":[33.84971861330567,8.580636247923564]}},{"type":"Feature","properties":{"source":"DHIS2","tag":"HEALTH at Waypoint C-ET-001-W2 — Day 2","location":"Waypoint C-ET-001-W2","day":2,"score":0.19420060202064504,"color":"#22C55E","size":6},"geometry":{"type":"Point","coordinates":[33.84971861330567,8.580636247923564]}},{"type":"Feature","properties":{"source":"ACLED","tag":"CONFLICT at Waypoint C-ET-001-W3 — Day 2","location":"Waypoint C-ET-001-W3","day":2,"score":0.2900709086447161,"color":"#EF4444","size":6},"geometry":{"type":"Point","coordinates":[33.48989791310706,8.736114875396966]}},{"type":"Feature","properties":{"source":"ACLED","tag":"CONFLICT at Waypoint C-ET-001-W3 — Day 3","location":"Waypoint C-ET-001-W3","day":3,"score":0.49618472616670206,"color":"#EF4444","size":8},"geometry":{"type":"Point","coordinates":[33.48989791310706,8.736114875396966]}},{"type":"Feature","properties":{"source":"IOM-DTM","tag":"DISPLACEMENT at Phantom POE [ET/SS] — Day 3","location":"Phantom POE [ET/SS]","day":3,"score":0.22238636318739263,"color":"#3B82F6","size":6},"geometry":{"type":"Point","coordinates":[33.126916725575995,8.894919981778154]}},{"type":"Feature","properties":{"source":"IOM-DTM","tag":"DISPLACEMENT at Waypoint C-ET-001-W5 — Day 4","location":"Waypoint C-ET-001-W5","day":4,"score":0.22047794272332386,"color":"#3B82F6","size":6},"geometry":{"type":"Point","coordinates":[32.75392798914558,9.060787699833933]}},{"type":"Feature","properties":{"source":"DHIS2","tag":"HEALTH at Waypoint C-ET-001-W6 — Day 4","location":"Waypoint C-ET-001-W6","day":4,"score":0.34427542757537555,"color":"#22C55E","size":7},"geometry":{"type":"Point","coordinates":[32.39924014483788,9.20630561653041]}},{"type":"Feature","properties":{"source":"ACLED","tag":"CONFLICT at Waypoint C-ET-001-W7 — Day 4","location":"Waypoint C-ET-001-W7","day":4,"score":0.3380568368590538,"color":"#EF4444","size":7},"geometry":{"type":"Point","coordinates":[32.029055179596185,9.379342953060274]}},{"type":"Feature","properties":{"source":"DHIS2","tag":"HEALTH at Waypoint C-ET-001-W6 — Day 5","location":"Waypoint C-ET-001-W6","day":5,"score":0.37997354007109585,"color":"#22C55E","size":7},"geometry":{"type":"Point","coordinates":[32.39924014483788,9.20630561653041]}},{"type":"Feature","properties":{"source":"ACLED","tag":"CONFLICT at Waypoint C-ET-001-W7 — Day 6","location":"Waypoint C-ET-001-W7","day":6,"score":0.35346103412454244,"color":"#EF4444","size":7},"geometry":{"type":"Point","coordinates":[32.029055179596185,9.379342953060274]}},{"type":"Feature","properties":{"source":"IOM-DTM","tag":"DISPLACEMENT at Malakal — Day 6","location":"Malakal","day":6,"score":0.2818463650132138,"color":"#3B82F6","size":6},"geometry":{"type":"Point","coordinates":[31.6605,9.5334]}},{"type":"Feature","properties":{"source":"ACLED","tag":"CONFLICT at Dolo Ado — Day 0","location":"Dolo Ado","day":0,"score":0.10415306206536729,"color":"#EF4444","size":5},"geometry":{"type":"Point","coordinates":[42.075,4.1817]}},{"type":"Feature","properties":{"source":"IOM-DTM","tag":"DISPLACEMENT at Border Zone [ET/SO] — Day 0","location":"Border Zone [ET/SO]","day":0,"score":0.38887385556928455,"color":"#3B82F6","size":7},"geometry":{"type":"Point","coordinates":[42.33574520632478,4.009334674961047]}},{"type":"Feature","properties":{"source":"IOM-DTM","tag":"DISPLACEMENT at Border Zone [ET/SO] — Day 1","location":"Border Zone [ET/SO]","day":1,"score":0.33712323418225704,"color":"#3B82F6","size":7},"geometry":{"type":"Point","coordinates":[42.33574520632478,4.009334674961047]}},{"type":"Feature","properties":{"source":"DHIS2","tag":"HEALTH at Waypoint C-ET-002-W2 — Day 2","location":"Waypoint C-ET-002-W2","day":2,"score":0.3658595257104177,"color":"#22C55E","size":7},"geometry":{"type":"Point","coordinates":[42.59210462616958,3.8224183542998427]}},{"type":"Feature","properties":{"source":"ACLED","tag":"CONFLICT at Phantom POE [ET/SO] — Day 2","location":"Phantom POE [ET/SO]","day":2,"score":0.17223630591450062,"color":"#EF4444","size":5},"geometry":{"type":"Point","coordinates":[42.857753598452724,3.6536276780536947]}},{"type":"Feature","properties":{"source":"ACLED","tag":"CONFLICT at Waypoint C-ET-002-W4 — Day 3","location":"Waypoint C-ET-002-W4","day":3,"score":0.49817866782036047,"color":"#EF4444","size":8},"geometry":{"type":"Point","coordinates":[43.1204252708226,3.4626230125627866]}},{"type":"Feature","properties":{"source":"IOM-DTM","tag":"DISPLACEMENT at Waypoint C-ET-002-W5 — Day 3","location":"Waypoint C-ET-002-W5","day":3,"score":0.1553552605513987,"color":"#3B82F6","size":5},"geometry":{"type":"Point","coordinates":[43.37949159392785,3.2902460792130137]}},{"type":"Feature","properties":{"source":"DHIS2","tag":"HEALTH at Baidoa — Day 3","location":"Baidoa","day":3,"score":0.4951523706650679,"color":"#22C55E","size":8},"geometry":{"type":"Point","coordinates":[43.65,3.1167]}},{"type":"Feature","properties":{"source":"IOM-DTM","tag":"DISPLACEMENT at Waypoint C-ET-002-W5 — Day 4","location":"Waypoint C-ET-002-W5","day":4,"score":0.1354094970113708,"color":"#3B82F6","size":5},"geometry":{"type":"Point","coordinates":[43.37949159392785,3.2902460792130137]}},{"type":"Feature","properties":{"source":"ACLED","tag":"CONFLICT at Humera — Day 0","location":"Humera","day":0,"score":0.26594142914869884,"color":"#EF4444","size":6},"geometry":{"type":"Point","coordinates":[36.6167,14.2667]}},{"type":"Feature","properties":{"source":"IOM-DTM","tag":"DISPLACEMENT at Border Zone [ET/SD] — Day 0","location":"Border Zone [ET/SD]","day":0,"score":0.47754402576738975,"color":"#3B82F6","size":8},"geometry":{"type":"Point","coordinates":[36.555980461629346,14.566195959203634]}},{"type":"Feature","properties":{"source":"IOM-DTM","tag":"DISPLACEMENT at Border Zone [ET/SD] — Day 1","location":"Border Zone [ET/SD]","day":1,"score":0.4009411144033961,"color":"#3B82F6","size":7},"geometry":{"type":"Point","coordinates":[36.555980461629346,14.566195959203634]}},{"type":"Feature","properties":{"source":"DHIS2","tag":"HEALTH at Phantom POE [ET/SD] — Day 2","location":"Phantom POE [ET/SD]","day":2,"score":0.14365575819582924,"color":"#22C55E","size":5},"geometry":{"type":"Point","coordinates":[36.51221286348141,14.863166399221791]}},{"type":"Feature","properties":{"source":"ACLED","tag":"CONFLICT at Waypoint C-ET-003-W3 — Day 3","location":"Waypoint C-ET-003-W3","day":3,"score":0.22904150076808305,"color":"#EF4444","size":6},"geometry":{"type":"Point","coordinates":[36.45347433172917,15.151232081967745]}},{"type":"Feature","properties":{"source":"IOM-DTM","tag":"DISPLACEMENT at Kassala — Day 3","location":"Kassala","day":3,"score":0.2500611644071251,"color":"#3B82F6","size":6},"geometry":{"type":"Point","coordinates":[36.4,15.45]}},{"type":"Feature","properties":{"source":"IOM-DTM","tag":"DISPLACEMENT at Kassala — Day 4","location":"Kassala","day":4,"score":0.1586186502360786,"color":"#3B82F6","size":5},"geometry":{"type":"Point","coordinates":[36.4,15.45]}},{"type":"Feature","properties":{"source":"ACLED","tag":"CONFLICT at Goma — Day 0","location":"Goma","day":0,"score":0.4125725687016617,"color":"#EF4444","size":7},"geometry":{"type":"Point","coordinates":[29.2284,-1.6789]}},{"type":"Feature","properties":{"source":"IOM-DTM","tag":"DISPLACEMENT at Phantom POE [CD/RW] — Day 0","location":"Phantom POE [CD/RW]","day":0,"score":0.12870653704045895,"color":"#3B82F6","size":5},"geometry":{"type":"Point","coordinates":[29.241367327321218,-1.6879138312875488]}},{"type":"Feature","properties":{"source":"DHIS2","tag":"HEALTH at Gisenyi — Day 0","location":"Gisenyi","day":0,"score":0.20241303518995246,"color":"#22C55E","size":6},"geometry":{"type":"Point","coordinates":[29.2564,-1.6811]}},{"type":"Feature","properties":{"source":"IOM-DTM","tag":"DISPLACEMENT at Goma — Day 1","location":"Goma","day":1,"score":0.16076670724718323,"color":"#3B82F6","size":5},"geometry":{"type":"Point","coordinates":[29.2284,-1.6789]}},{"type":"Feature","properties":{"source":"DHIS2","tag":"HEALTH at Phantom POE [CD/RW] — Day 1","location":"Phantom POE [CD/RW]","day":1,"score":0.46923145279980605,"color":"#22C55E","size":8},"geometry":{"type":"Point","coordinates":[29.241367327321218,-1.6879138312875488]}},{"type":"Feature","properties":{"source":"DHIS2","tag":"HEALTH at Goma — Day 2","location":"Goma","day":2,"score":0.19887093206019624,"color":"#22C55E","size":6},"geometry":{"type":"Point","coordinates":[29.2284,-1.6789]}},{"type":"Feature","properties":{"source":"ACLED","tag":"CONFLICT at Phantom POE [CD/RW] — Day 2","location":"Phantom POE [CD/RW]","day":2,"score":0.4125775634393303,"color":"#EF4444","size":7},"geometry":{"type":"Point","coordinates":[29.241367327321218,-1.6879138312875488]}},{"type":"Feature","properties":{"source":"ACLED","tag":"CONFLICT at Phantom POE [CD/RW] — Day 3","location":"Phantom POE [CD/RW]","day":3,"score":0.45966420327077584,"color":"#EF4444","size":8},"geometry":{"type":"Point","coordinates":[29.241367327321218,-1.6879138312875488]}},{"type":"Feature","properties":{"source":"IOM-DTM","tag":"DISPLACEMENT at Gisenyi — Day 3","location":"Gisenyi","day":3,"score":0.4708154983138373,"color":"#3B82F6","size":8},"geometry":{"type":"Point","coordinates":[29.2564,-1.6811]}},{"type":"Feature","properties":{"source":"IOM-DTM","tag":"DISPLACEMENT at Phantom POE [CD/RW] — Day 4","location":"Phantom POE [CD/RW]","day":4,"score":0.2671642586637588,"color":"#3B82F6","size":6},"geometry":{"type":"Point","coordinates":[29.241367327321218,-1.6879138312875488]}},{"type":"Feature","properties":{"source":"DHIS2","tag":"HEALTH at Gisenyi — Day 4","location":"Gisenyi","day":4,"score":0.3756508331085284,"color":"#22C55E","size":7},"geometry":{"type":"Point","coordinates":[29.2564,-1.6811]}},{"type":"Feature","properties":{"source":"ACLED","tag":"CONFLICT at Gisenyi — Day 4","location":"Gisenyi","day":4,"score":0.21569591080530928,"color":"#EF4444","size":6},"geometry":{"type":"Point","coordinates":[29.2564,-1.6811]}},{"type":"Feature","properties":{"source":"DHIS2","tag":"HEALTH at Gisenyi — Day 5","location":"Gisenyi","day":5,"score":0.2903035481834211,"color":"#22C55E","size":6},"geometry":{"type":"Point","coordinates":[29.2564,-1.6811]}},{"type":"Feature","properties":{"source":"ACLED","tag":"CONFLICT at Gisenyi — Day 5","location":"Gisenyi","day":5,"score":0.41299849320586857,"color":"#EF4444","size":7},"geometry":{"type":"Point","coordinates":[29.2564,-1.6811]}},{"type":"Feature","properties":{"source":"ACLED","tag":"CONFLICT at Gisenyi — Day 6","location":"Gisenyi","day":6,"score":0.46959824262498984,"color":"#EF4444","size":8},"geometry":{"type":"Point","coordinates":[29.2564,-1.6811]}},{"type":"Feature","properties":{"source":"IOM-DTM","tag":"DISPLACEMENT at Gisenyi — Day 6","location":"Gisenyi","day":6,"score":0.250162984378604,"color":"#3B82F6","size":6},"geometry":{"type":"Point","coordinates":[29.2564,-1.6811]}},{"type":"Feature","properties":{"source":"ACLED","tag":"CONFLICT at Baga — Day 0","location":"Baga","day":0,"score":0.4870276899160254,"color":"#EF4444","size":8},"geometry":{"type":"Point","coordinates":[13.9222,12.7765]}},{"type":"Feature","properties":{"source":"IOM-DTM","tag":"DISPLACEMENT at Border Zone [NG/NE] — Day 0","location":"Border Zone [NG/NE]","day":0,"score":0.49629532279659716,"color":"#3B82F6","size":8},"geometry":{"type":"Point","coordinates":[13.595566912582683,12.920404097355766]}},{"type":"Feature","properties":{"source":"IOM-DTM","tag":"DISPLACEMENT at Baga — Day 1","location":"Baga","day":1,"score":0.37965882463790346,"color":"#3B82F6","size":7},"geometry":{"type":"Point","coordinates":[13.9222,12.7765]}},{"type":"Feature","properties":{"source":"DHIS2","tag":"HEALTH at Border Zone [NG/NE] — Day 1","location":"Border Zone [NG/NE]","day":1,"score":0.4836797733090562,"color":"#22C55E","size":8},"geometry":{"type":"Point","coordinates":[13.595566912582683,12.920404097355766]}},{"type":"Feature","properties":{"source":"ACLED","tag":"CONFLICT at Phantom POE [NG/NE] — Day 1","location":"Phantom POE [NG/NE]","day":1,"score":0.42346780532200967,"color":"#EF4444","size":7},"geometry":{"type":"Point","coordinates":[13.276477273165975,13.04823938575085]}},{"type":"Feature","properties":{"source":"DHIS2","tag":"HEALTH at Border Zone [NG/NE] — Day 2","location":"Border Zone [NG/NE]","day":2,"score":0.1404092720299445,"color":"#22C55E","size":5},"geometry":{"type":"Point","coordinates":[13.595566912582683,12.920404097355766]}},{"type":"Feature","properties":{"source":"ACLED","tag":"CONFLICT at Phantom POE [NG/NE] — Day 2","location":"Phantom POE [NG/NE]","day":2,"score":0.3612950963952013,"color":"#EF4444","size":7},"geometry":{"type":"Point","coordinates":[13.276477273165975,13.04823938575085]}},{"type":"Feature","properties":{"source":"IOM-DTM","tag":"DISPLACEMENT at Waypoint C-NG-001-W3 — Day 2","location":"Waypoint C-NG-001-W3","day":2,"score":0.3795544098921281,"color":"#3B82F6","size":7},"geometry":{"type":"Point","coordinates":[12.930410253698394,13.18207801185904]}},{"type":"Feature","properties":{"source":"ACLED","tag":"CONFLICT at Phantom POE [NG/NE] — Day 3","location":"Phantom POE [NG/NE]","day":3,"score":0.34643857076978,"color":"#EF4444","size":7},"geometry":{"type":"Point","coordinates":[13.276477273165975,13.04823938575085]}},{"type":"Feature","properties":{"source":"IOM-DTM","tag":"DISPLACEMENT at Phantom POE [NG/NE] — Day 4","location":"Phantom POE [NG/NE]","day":4,"score":0.3047544297368383,"color":"#3B82F6","size":6},"geometry":{"type":"Point","coordinates":[13.276477273165975,13.04823938575085]}},{"type":"Feature","properties":{"source":"DHIS2","tag":"HEALTH at Waypoint C-NG-001-W3 — Day 4","location":"Waypoint C-NG-001-W3","day":4,"score":0.12522044508037466,"color":"#22C55E","size":5},"geometry":{"type":"Point","coordinates":[12.930410253698394,13.18207801185904]}},{"type":"Feature","properties":{"source":"DHIS2","tag":"HEALTH at Waypoint C-NG-001-W3 — Day 5","location":"Waypoint C-NG-001-W3","day":5,"score":0.4308921805593361,"color":"#22C55E","size":7},"geometry":{"type":"Point","coordinates":[12.930410253698394,13.18207801185904]}},{"type":"Feature","properties":{"source":"ACLED","tag":"CONFLICT at Diffa — Day 5","location":"Diffa","day":5,"score":0.35619891414325,"color":"#EF4444","size":7},"geometry":{"type":"Point","coordinates":[12.6113,13.3154]}},{"type":"Feature","properties":{"source":"IOM-DTM","tag":"DISPLACEMENT at Diffa — Day 5","location":"Diffa","day":5,"score":0.1564914085391163,"color":"#3B82F6","size":5},"geometry":{"type":"Point","coordinates":[12.6113,13.3154]}},{"type":"Feature","properties":{"source":"ACLED","tag":"CONFLICT at Diffa — Day 6","location":"Diffa","day":6,"score":0.13100320444929495,"color":"#EF4444","size":5},"geometry":{"type":"Point","coordinates":[12.6113,13.3154]}},{"type":"Feature","properties":{"source":"IOM-DTM","tag":"DISPLACEMENT at Diffa — Day 6","location":"Diffa","day":6,"score":0.21191471842083645,"color":"#3B82F6","size":6},"geometry":{"type":"Point","coordinates":[12.6113,13.3154]}},{"type":"Feature","properties":{"source":"ACLED","tag":"CONFLICT at Gwoza — Day 0","location":"Gwoza","day":0,"score":0.11375854315686965,"color":"#EF4444","size":5},"geometry":{"type":"Point","coordinates":[13.6933,11.0833]}},{"type":"Feature","properties":{"source":"IOM-DTM","tag":"DISPLACEMENT at Phantom POE [NG/CM] — Day 0","location":"Phantom POE [NG/CM]","day":0,"score":0.2006937906683477,"color":"#3B82F6","size":6},"geometry":{"type":"Point","coordinates":[13.906581592381093,11.062411749976153]}},{"type":"Feature","properties":{"source":"DHIS2","tag":"HEALTH at Mora — Day 0","location":"Mora","day":0,"score":0.22781891336963686,"color":"#22C55E","size":6},"geometry":{"type":"Point","coordinates":[14.1398,11.0461]}},{"type":"Feature","properties":{"source":"IOM-DTM","tag":"DISPLACEMENT at Gwoza — Day 1","location":"Gwoza","day":1,"score":0.3349004948101354,"color":"#3B82F6","size":7},"geometry":{"type":"Point","coordinates":[13.6933,11.0833]}},{"type":"Feature","properties":{"source":"DHIS2","tag":"HEALTH at Phantom POE [NG/CM] — Day 1","location":"Phantom POE [NG/CM]","day":1,"score":0.461193758842813,"color":"#22C55E","size":8},"geometry":{"type":"Point","coordinates":[13.906581592381093,11.062411749976153]}},{"type":"Feature","properties":{"source":"ACLED","tag":"CONFLICT at Mora — Day 1","location":"Mora","day":1,"score":0.1469563628042308,"color":"#EF4444","size":5},"geometry":{"type":"Point","coordinates":[14.1398,11.0461]}},{"type":"Feature","properties":{"source":"DHIS2","tag":"HEALTH at Phantom POE [NG/CM] — Day 2","location":"Phantom POE [NG/CM]","day":2,"score":0.4257830483706436,"color":"#22C55E","size":7},"geometry":{"type":"Point","coordinates":[13.906581592381093,11.062411749976153]}},{"type":"Feature","properties":{"source":"ACLED","tag":"CONFLICT at Mora — Day 2","location":"Mora","day":2,"score":0.25788275300743246,"color":"#EF4444","size":6},"geometry":{"type":"Point","coordinates":[14.1398,11.0461]}},{"type":"Feature","properties":{"source":"IOM-DTM","tag":"DISPLACEMENT at Mora — Day 2","location":"Mora","day":2,"score":0.33934145034623203,"color":"#3B82F6","size":7},"geometry":{"type":"Point","coordinates":[14.1398,11.0461]}},{"type":"Feature","properties":{"source":"ACLED","tag":"CONFLICT at Phantom POE [NG/CM] — Day 3","location":"Phantom POE [NG/CM]","day":3,"score":0.30758432705136285,"color":"#EF4444","size":6},"geometry":{"type":"Point","coordinates":[13.906581592381093,11.062411749976153]}},{"type":"Feature","properties":{"source":"IOM-DTM","tag":"DISPLACEMENT at Mora — Day 3","location":"Mora","day":3,"score":0.22055331538839196,"color":"#3B82F6","size":6},"geometry":{"type":"Point","coordinates":[14.1398,11.0461]}},{"type":"Feature","properties":{"source":"DHIS2","tag":"HEALTH at Mora — Day 3","location":"Mora","day":3,"score":0.1640482487499232,"color":"#22C55E","size":5},"geometry":{"type":"Point","coordinates":[14.1398,11.0461]}},{"type":"Feature","properties":{"source":"IOM-DTM","tag":"DISPLACEMENT at Mora — Day 4","location":"Mora","day":4,"score":0.1494381531656837,"color":"#3B82F6","size":5},"geometry":{"type":"Point","coordinates":[14.1398,11.0461]}},{"type":"Feature","properties":{"source":"DHIS2","tag":"HEALTH at Mora — Day 4","location":"Mora","day":4,"score":0.2874286604293957,"color":"#22C55E","size":6},"geometry":{"type":"Point","coordinates":[14.1398,11.0461]}},{"type":"Feature","properties":{"source":"ACLED","tag":"CONFLICT at Banki — Day 0","location":"Banki","day":0,"score":0.3258620286106185,"color":"#EF4444","size":7},"geometry":{"type":"Point","coordinates":[13.5811,11.0492]}},{"type":"Feature","properties":{"source":"IOM-DTM","tag":"DISPLACEMENT at Banki — Day 1","location":"Banki","day":1,"score":0.28338994664631956,"color":"#3B82F6","size":6},"geometry":{"type":"Point","coordinates":[13.5811,11.0492]}},{"type":"Feature","properties":{"source":"DHIS2","tag":"HEALTH at Phantom POE [NG/CM] — Day 2","location":"Phantom POE [NG/CM]","day":2,"score":0.27039257997188054,"color":"#22C55E","size":6},"geometry":{"type":"Point","coordinates":[13.59534821488775,11.00503398668724]}},{"type":"Feature","properties":{"source":"ACLED","tag":"CONFLICT at Amchide — Day 2","location":"Amchide","day":2,"score":0.12516140245555044,"color":"#EF4444","size":5},"geometry":{"type":"Point","coordinates":[13.5944,10.9583]}},{"type":"Feature","properties":{"source":"IOM-DTM","tag":"DISPLACEMENT at Amchide — Day 2","location":"Amchide","day":2,"score":0.25487338308235535,"color":"#3B82F6","size":6},"geometry":{"type":"Point","coordinates":[13.5944,10.9583]}},{"type":"Feature","properties":{"source":"ACLED","tag":"CONFLICT at Amchide — Day 3","location":"Amchide","day":3,"score":0.16480339541140432,"color":"#EF4444","size":5},"geometry":{"type":"Point","coordinates":[13.5944,10.9583]}},{"type":"Feature","properties":{"source":"IOM-DTM","tag":"DISPLACEMENT at Amchide — Day 3","location":"Amchide","day":3,"score":0.1985442561360669,"color":"#3B82F6","size":6},"geometry":{"type":"Point","coordinates":[13.5944,10.9583]}},{"type":"Feature","properties":{"source":"DHIS2","tag":"HEALTH at Amchide — Day 3","location":"Amchide","day":3,"score":0.3327410458142357,"color":"#22C55E","size":7},"geometry":{"type":"Point","coordinates":[13.5944,10.9583]}},{"type":"Feature","properties":{"source":"ACLED","tag":"CONFLICT at Metema — Day 0","location":"Metema","day":0,"score":0.490732304823878,"color":"#EF4444","size":8},"geometry":{"type":"Point","coordinates":[36.2,12.96]}},{"type":"Feature","properties":{"source":"IOM-DTM","tag":"DISPLACEMENT at Phantom POE [SD/ET] — Day 0","location":"Phantom POE [SD/ET]","day":0,"score":0.18808942648349636,"color":"#3B82F6","size":6},"geometry":{"type":"Point","coordinates":[36.169169175530584,12.96260874468018]}},{"type":"Feature","properties":{"source":"IOM-DTM","tag":"DISPLACEMENT at Metema — Day 1","location":"Metema","day":1,"score":0.4663769085044932,"color":"#3B82F6","size":8},"geometry":{"type":"Point","coordinates":[36.2,12.96]}},{"type":"Feature","properties":{"source":"DHIS2","tag":"HEALTH at Phantom POE [SD/ET] — Day 1","location":"Phantom POE [SD/ET]","day":1,"score":0.3389034352767959,"color":"#22C55E","size":7},"geometry":{"type":"Point","coordinates":[36.169169175530584,12.96260874468018]}},{"type":"Feature","properties":{"source":"ACLED","tag":"CONFLICT at Gallabat — Day 1","location":"Gallabat","day":1,"score":0.3535189606934337,"color":"#EF4444","size":7},"geometry":{"type":"Point","coordinates":[36.15,12.9667]}},{"type":"Feature","properties":{"source":"DHIS2","tag":"HEALTH at Phantom POE [SD/ET] — Day 2","location":"Phantom POE [SD/ET]","day":2,"score":0.37841761787956363,"color":"#22C55E","size":7},"geometry":{"type":"Point","coordinates":[36.169169175530584,12.96260874468018]}},{"type":"Feature","properties":{"source":"ACLED","tag":"CONFLICT at Phantom POE [SD/ET] — Day 3","location":"Phantom POE [SD/ET]","day":3,"score":0.37315925875323464,"color":"#EF4444","size":7},"geometry":{"type":"Point","coordinates":[36.169169175530584,12.96260874468018]}},{"type":"Feature","properties":{"source":"IOM-DTM","tag":"DISPLACEMENT at Gallabat — Day 4","location":"Gallabat","day":4,"score":0.377925703493597,"color":"#3B82F6","size":7},"geometry":{"type":"Point","coordinates":[36.15,12.9667]}},{"type":"Feature","properties":{"source":"DHIS2","tag":"HEALTH at Gallabat — Day 4","location":"Gallabat","day":4,"score":0.1438472639833476,"color":"#22C55E","size":5},"geometry":{"type":"Point","coordinates":[36.15,12.9667]}},{"type":"Feature","properties":{"source":"ACLED","tag":"CONFLICT at Gallabat — Day 4","location":"Gallabat","day":4,"score":0.20806937756039337,"color":"#EF4444","size":6},"geometry":{"type":"Point","coordinates":[36.15,12.9667]}},{"type":"Feature","properties":{"source":"ACLED","tag":"CONFLICT at Yambio — Day 0","location":"Yambio","day":0,"score":0.4673232648832981,"color":"#EF4444","size":8},"geometry":{"type":"Point","coordinates":[28.3833,4.5667]}},{"type":"Feature","properties":{"source":"IOM-DTM","tag":"DISPLACEMENT at Border Zone [SS/CF] — Day 0","location":"Border Zone [SS/CF]","day":0,"score":0.4776476498874269,"color":"#3B82F6","size":8},"geometry":{"type":"Point","coordinates":[27.674463298051258,4.5500375852569555]}},{"type":"Feature","properties":{"source":"DHIS2","tag":"HEALTH at Waypoint C-SS-001-W2 — Day 0","location":"Waypoint C-SS-001-W2","day":0,"score":0.45652967068729533,"color":"#22C55E","size":8},"geometry":{"type":"Point","coordinates":[26.976773490698577,4.534581938402668]}},{"type":"Feature","properties":{"source":"IOM-DTM","tag":"DISPLACEMENT at Waypoint C-SS-001-W2 — Day 1","location":"Waypoint C-SS-001-W2","day":1,"score":0.3670399949353287,"color":"#3B82F6","size":7},"geometry":{"type":"Point","coordinates":[26.976773490698577,4.534581938402668]}},{"type":"Feature","properties":{"source":"DHIS2","tag":"HEALTH at Waypoint C-SS-001-W3 — Day 1","location":"Waypoint C-SS-001-W3","day":1,"score":0.4847947020151887,"color":"#22C55E","size":8},"geometry":{"type":"Point","coordinates":[26.276400183355513,4.525298534716208]}},{"type":"Feature","properties":{"source":"DHIS2","tag":"HEALTH at Waypoint C-SS-001-W4 — Day 2","location":"Waypoint C-SS-001-W4","day":2,"score":0.31672946696871385,"color":"#22C55E","size":7},"geometry":{"type":"Point","coordinates":[25.57899071760789,4.511249643808085]}},{"type":"Feature","properties":{"source":"ACLED","tag":"CONFLICT at Waypoint C-SS-001-W6 — Day 3","location":"Waypoint C-SS-001-W6","day":3,"score":0.2585067325057835,"color":"#EF4444","size":6},"geometry":{"type":"Point","coordinates":[24.1783819690009,4.494289878825157]}},{"type":"Feature","properties":{"source":"IOM-DTM","tag":"DISPLACEMENT at Phantom POE [SS/CF] — Day 3","location":"Phantom POE [SS/CF]","day":3,"score":0.4832300496594144,"color":"#3B82F6","size":8},"geometry":{"type":"Point","coordinates":[23.4751830460172,4.4749869972689496]}},{"type":"Feature","properties":{"source":"DHIS2","tag":"HEALTH at Waypoint C-SS-001-W8 — Day 3","location":"Waypoint C-SS-001-W8","day":3,"score":0.4658610633252761,"color":"#22C55E","size":8},"geometry":{"type":"Point","coordinates":[22.76612959082425,4.4748434061616]}},{"type":"Feature","properties":{"source":"IOM-DTM","tag":"DISPLACEMENT at Waypoint C-SS-001-W8 — Day 4","location":"Waypoint C-SS-001-W8","day":4,"score":0.2516732260071691,"color":"#3B82F6","size":6},"geometry":{"type":"Point","coordinates":[22.76612959082425,4.4748434061616]}},{"type":"Feature","properties":{"source":"DHIS2","tag":"HEALTH at Waypoint C-SS-001-W10 — Day 5","location":"Waypoint C-SS-001-W10","day":5,"score":0.28841358090894187,"color":"#22C55E","size":6},"geometry":{"type":"Point","coordinates":[21.36447113999174,4.447720752514938]}},{"type":"Feature","properties":{"source":"ACLED","tag":"CONFLICT at Waypoint C-SS-001-W11 — Day 5","location":"Waypoint C-SS-001-W11","day":5,"score":0.257970066784755,"color":"#EF4444","size":6},"geometry":{"type":"Point","coordinates":[20.65376317388441,4.433476887051312]}},{"type":"Feature","properties":{"source":"ACLED","tag":"CONFLICT at Waypoint C-SS-001-W12 — Day 6","location":"Waypoint C-SS-001-W12","day":6,"score":0.3199406940970805,"color":"#EF4444","size":7},"geometry":{"type":"Point","coordinates":[19.956976942892492,4.422816693139632]}},{"type":"Feature","properties":{"source":"IOM-DTM","tag":"DISPLACEMENT at Waypoint C-SS-001-W13 — Day 6","location":"Waypoint C-SS-001-W13","day":6,"score":0.3867024689238109,"color":"#3B82F6","size":7},"geometry":{"type":"Point","coordinates":[19.256352006745573,4.412392861248202]}},{"type":"Feature","properties":{"source":"ACLED","tag":"CONFLICT at Renk — Day 0","location":"Renk","day":0,"score":0.13883157339698815,"color":"#EF4444","size":5},"geometry":{"type":"Point","coordinates":[32.8,11.75]}},{"type":"Feature","properties":{"source":"IOM-DTM","tag":"DISPLACEMENT at Border Zone [SS/SD] — Day 0","location":"Border Zone [SS/SD]","day":0,"score":0.46856453317695645,"color":"#3B82F6","size":8},"geometry":{"type":"Point","coordinates":[33.10032467204281,11.750287183797116]}},{"type":"Feature","properties":{"source":"DHIS2","tag":"HEALTH at Phantom POE [SS/SD] — Day 0","location":"Phantom POE [SS/SD]","day":0,"score":0.3203852932703489,"color":"#22C55E","size":7},"geometry":{"type":"Point","coordinates":[33.41572777267119,11.7534757932851]}},{"type":"Feature","properties":{"source":"IOM-DTM","tag":"DISPLACEMENT at Border Zone [SS/SD] — Day 1","location":"Border Zone [SS/SD]","day":1,"score":0.3204993414615027,"color":"#3B82F6","size":7},"geometry":{"type":"Point","coordinates":[33.10032467204281,11.750287183797116]}},{"type":"Feature","properties":{"source":"DHIS2","tag":"HEALTH at Phantom POE [SS/SD] — Day 1","location":"Phantom POE [SS/SD]","day":1,"score":0.2922468374386944,"color":"#22C55E","size":6},"geometry":{"type":"Point","coordinates":[33.41572777267119,11.7534757932851]}},{"type":"Feature","properties":{"source":"ACLED","tag":"CONFLICT at Waypoint C-SS-002-W3 — Day 1","location":"Waypoint C-SS-002-W3","day":1,"score":0.13157968031655445,"color":"#EF4444","size":5},"geometry":{"type":"Point","coordinates":[33.737622631385356,11.759287565049906]}},{"type":"Feature","properties":{"source":"DHIS2","tag":"HEALTH at Phantom POE [SS/SD] — Day 2","location":"Phantom POE [SS/SD]","day":2,"score":0.2384558006423347,"color":"#22C55E","size":6},"geometry":{"type":"Point","coordinates":[33.41572777267119,11.7534757932851]}},{"type":"Feature","properties":{"source":"ACLED","tag":"CONFLICT at Waypoint C-SS-002-W3 — Day 3","location":"Waypoint C-SS-002-W3","day":3,"score":0.23954102297225682,"color":"#EF4444","size":6},"geometry":{"type":"Point","coordinates":[33.737622631385356,11.759287565049906]}},{"type":"Feature","properties":{"source":"IOM-DTM","tag":"DISPLACEMENT at Waypoint C-SS-002-W4 — Day 4","location":"Waypoint C-SS-002-W4","day":4,"score":0.24110790270220056,"color":"#3B82F6","size":6},"geometry":{"type":"Point","coordinates":[34.045489204858356,11.754309608253063]}},{"type":"Feature","properties":{"source":"DHIS2","tag":"HEALTH at Ed Damazin — Day 4","location":"Ed Damazin","day":4,"score":0.3591900888049804,"color":"#22C55E","size":7},"geometry":{"type":"Point","coordinates":[34.35,11.7667]}},{"type":"Feature","properties":{"source":"ACLED","tag":"CONFLICT at Ed Damazin — Day 4","location":"Ed Damazin","day":4,"score":0.4817763404424603,"color":"#EF4444","size":8},"geometry":{"type":"Point","coordinates":[34.35,11.7667]}},{"type":"Feature","properties":{"source":"ACLED","tag":"CONFLICT at Kapoeta — Day 0","location":"Kapoeta","day":0,"score":0.12483026583202604,"color":"#EF4444","size":5},"geometry":{"type":"Point","coordinates":[33.5875,4.7714]}},{"type":"Feature","properties":{"source":"IOM-DTM","tag":"DISPLACEMENT at Border Zone [SS/KE] — Day 0","location":"Border Zone [SS/KE]","day":0,"score":0.15924811821843232,"color":"#3B82F6","size":5},"geometry":{"type":"Point","coordinates":[33.872643642520266,4.529208833132477]}},{"type":"Feature","properties":{"source":"IOM-DTM","tag":"DISPLACEMENT at Waypoint C-SS-003-W2 — Day 1","location":"Waypoint C-SS-003-W2","day":1,"score":0.21124368999529725,"color":"#3B82F6","size":6},"geometry":{"type":"Point","coordinates":[34.151563865885805,4.303007058471566]}},{"type":"Feature","properties":{"source":"DHIS2","tag":"HEALTH at Phantom POE [SS/KE] — Day 1","location":"Phantom POE [SS/KE]","day":1,"score":0.20066089036698465,"color":"#22C55E","size":6},"geometry":{"type":"Point","coordinates":[34.444794942424004,4.071074776649066]}},{"type":"Feature","properties":{"source":"ACLED","tag":"CONFLICT at Waypoint C-SS-003-W4 — Day 1","location":"Waypoint C-SS-003-W4","day":1,"score":0.3777377025235318,"color":"#EF4444","size":7},"geometry":{"type":"Point","coordinates":[34.72881785684659,3.8307870930472006]}},{"type":"Feature","properties":{"source":"DHIS2","tag":"HEALTH at Waypoint C-SS-003-W4 — Day 2","location":"Waypoint C-SS-003-W4","day":2,"score":0.4257186991194085,"color":"#22C55E","size":7},"geometry":{"type":"Point","coordinates":[34.72881785684659,3.8307870930472006]}},{"type":"Feature","properties":{"source":"ACLED","tag":"CONFLICT at Waypoint C-SS-003-W5 — Day 2","location":"Waypoint C-SS-003-W5","day":2,"score":0.17922545354252817,"color":"#EF4444","size":5},"geometry":{"type":"Point","coordinates":[35.01888436431263,3.5847820509500585]}},{"type":"Feature","properties":{"source":"ACLED","tag":"CONFLICT at Waypoint C-SS-003-W6 — Day 3","location":"Waypoint C-SS-003-W6","day":3,"score":0.2587911660149103,"color":"#EF4444","size":6},"geometry":{"type":"Point","coordinates":[35.29043794306555,3.3555209725420645]}},{"type":"Feature","properties":{"source":"IOM-DTM","tag":"DISPLACEMENT at Lodwar — Day 3","location":"Lodwar","day":3,"score":0.1690021075747527,"color":"#3B82F6","size":5},"geometry":{"type":"Point","coordinates":[35.5833,3.1167]}},{"type":"Feature","properties":{"source":"DHIS2","tag":"HEALTH at Lodwar — Day 3","location":"Lodwar","day":3,"score":0.40463704665824396,"color":"#22C55E","size":7},"geometry":{"type":"Point","coordinates":[35.5833,3.1167]}}]}